{
    "regions": [ {
            "id": 1,
            "name": "Ibn Gvirol",
            "center": {
                "lat": "32.087123",
                "lon": "34.782131"
            },
            "cameras": [{
                "id": "11",
                "name": "Ibn Gvirol/Zabotinsky",
                "location": {
                  "lat": "32.088161",
                  "lon": "34.782330"
                }
            }, {
                "id": "12",
                "name": "Arlozorov",
                "location": {
                  "lat": "32.085154",
                  "lon": "34.781786"
                }
            }]
        }, {
            "id": 2,
            "name": "Kaplan",
            "center": {
                "lat": "32.072263",
                "lon": "34.781904"
            },
            "cameras": [{
                "id": "21",
                "name": "Kaplan/Ibn Gvirol",
                "location": {
                  "lat": "32.073491",
                  "lon": "34.781841"
                }
            }, {
                "id": "22",
                "name": "Marmorek",
                "location": {
                  "lat": "32.071098",
                  "lon": "34.781920"
                }
            }]
        }
    ]
}
